study_id,survey_id,country_name,site_name,latitude,longitude,location_method,location_notes,sample_source,collection_start,collection_end,collection_day,time_method,time_notes
PMID_16518760,PMID_16518760_kanungu,Uganda,Kanungu,-0.958,29.79,district centroid,"Kanungu District, southwestern Uganda; low transmission (EIR=7). Coordinates approximate district centroid.",clinical_trial,2002-12-01,2004-05-31,2003-09-15,study-wide collection window (Dec 2002-May 2004); no per-site dates given,"Samples from drug-efficacy trials conducted Dec 2002-May 2004; per-site time bins not reported, so study-wide window used with midpoint."
PMID_16518760,PMID_16518760_mubende,Uganda,Mubende,0.557,31.395,town centroid,"Mubende town, central Uganda; low transmission (EIR=3).",clinical_trial,2002-12-01,2004-05-31,2003-09-15,study-wide collection window (Dec 2002-May 2004); no per-site dates given,Per-site time bins not reported; study-wide window used with midpoint.
PMID_16518760,PMID_16518760_jinja,Uganda,Jinja,0.424,33.204,town centroid,"Jinja town, southeastern Uganda; low transmission (EIR=6).",clinical_trial,2002-12-01,2004-05-31,2003-09-15,study-wide collection window (Dec 2002-May 2004); no per-site dates given,Per-site time bins not reported; study-wide window used with midpoint.
PMID_16518760,PMID_16518760_arua,Uganda,Arua,3.02,30.911,town centroid,"Arua town, northwestern Uganda; medium transmission (EIR=393).",clinical_trial,2002-12-01,2004-05-31,2003-09-15,study-wide collection window (Dec 2002-May 2004); no per-site dates given,Per-site time bins not reported; study-wide window used with midpoint.
PMID_16518760,PMID_16518760_tororo,Uganda,Tororo,0.693,34.181,town centroid,"Tororo town, eastern Uganda; high transmission (EIR=591).",clinical_trial,2002-12-01,2004-05-31,2003-09-15,study-wide collection window (Dec 2002-May 2004); no per-site dates given,Per-site time bins not reported; study-wide window used with midpoint.
PMID_16518760,PMID_16518760_apac,Uganda,Apac,1.976,32.537,town centroid,"Apac town, northern Uganda; high transmission (EIR=1564).",clinical_trial,2002-12-01,2004-05-31,2003-09-15,study-wide collection window (Dec 2002-May 2004); no per-site dates given,Per-site time bins not reported; study-wide window used with midpoint.
